$GNGGA,030838.58,3533.905483,N,13943.077319,E,1,12,0.9,6.4,M,39.3,M,,*7C
$GNRMC,030838.58,A,3533.905483,N,13943.077319,E,1.4,15.8,070323,4.9,W,A,V*7D
$GBGSV,4,1,13,06,68,246,22,09,61,286,27,24,26,307,37,26,71,344,34*67
$GBGSV,4,2,13,29,31,045,30,01,46,171,,02,18,247,,03,36,222,*6E
$GBGSV,4,3,13,04,42,147,,07,46,264,,10,33,260,,12,10,205,*6B
$GBGSV,4,4,13,14,04,274,*59
$GPGSV,3,1,10,04,32,274,27,08,27,229,23,09,15,307,40,16,60,327,39,1*63
$GPGSV,3,2,10,18,32,070,26,26,56,053,39,31,36,137,28,02,07,035,,1*6F
$GPGSV,3,3,10,27,61,233,,28,25,140,,1*6D
$GLGSV,2,1,08,77,26,317,26,76,58,014,33,75,29,094,35,85,32,035,26,1*73
$GLGSV,2,2,08,67,14,296,35,66,10,246,,87,28,182,,68,01,341,,1*79
$GAGSV,1,1,02,02,62,340,37,30,21,288,42,7*70
$PQGSV,1,1,02,194,82,011,29,195,47,165,32,0*71
$GBGSV,4,1,13,06,68,246,27,09,61,286,33,24,26,307,43,26,71,344,40,0*7B
$GBGSV,4,2,13,29,31,045,35,01,46,171,,02,18,247,,03,36,222,,0*77
$GBGSV,4,3,13,04,42,147,,07,46,264,,10,33,260,,12,10,205,,0*77
$GBGSV,4,4,13,14,04,274,,0*45
$GNGSA,A,3,04,09,16,18,26,31,,,,,,,1.2,0.9,0.8,1*36
$GNGSA,A,3,67,75,76,77,85,,,,,,,,1.2,0.9,0.8,2*3F
$GNGSA,A,2,02,30,,,,,,,,,,,1.2,0.9,0.8,3*31
$PQGSA,A,2,02,03,,,,,,,,,,,1.2,0.9,0.8,6*3C
$GNGSA,A,3,06,09,24,26,,,,,,,,,1.2,0.9,0.8,5*3A
$GNVTG,19.1,T,19.1,M,2.4,N,4.4,K,A*3B
$GNGGA,030840.00,3533.906488,N,13943.077575,E,1,12,0.9,6.2,M,39.3,M,,*7C
$GNRMC,030840.00,A,3533.906488,N,13943.077575,E,2.4,19.1,070323,4.9,W,A,V*7D
$GBGSV,4,1,13,06,68,246,23,07,46,264,19,09,61,286,27,24,26,307,37*6D
$GBGSV,4,2,13,26,71,344,34,29,31,045,30,01,46,171,,02,18,247,*6C
$GBGSV,4,3,13,03,36,222,,04,42,147,,10,33,260,,12,10,205,*6A
$GBGSV,4,4,13,14,04,274,*59
$GPGSV,3,1,10,04,32,274,29,08,27,229,23,09,15,307,44,16,60,327,37,1*67
$GPGSV,3,2,10,18,32,070,25,26,56,053,38,28,25,140,29,31,36,137,32,1*66
$GPGSV,3,3,10,02,07,035,,27,61,233,,1*66
$GLGSV,2,1,08,77,26,317,25,76,58,014,34,75,29,094,32,87,28,182,23,1*71
$GLGSV,2,2,08,85,32,035,26,67,14,296,39,66,10,246,,68,01,341,,1*75
$GAGSV,1,1,02,02,62,340,34,30,21,288,43,7*72
$PQGSV,1,1,02,194,82,011,32,195,47,165,33,0*7A
$GBGSV,4,1,13,06,68,246,29,07,46,264,24,09,61,286,33,24,26,307,43,0*73
$GBGSV,4,2,13,26,71,344,40,29,31,045,35,01,46,171,,02,18,247,,0*76
$GBGSV,4,3,13,03,36,222,,04,42,147,,10,33,260,,12,10,205,,0*76
$GBGSV,4,4,13,14,04,274,,0*45
$GNGSA,A,3,04,09,16,18,26,28,31,,,,,,1.1,0.8,0.7,1*31
$GNGSA,A,3,67,75,76,77,85,,,,,,,,1.1,0.8,0.7,2*32
$GNGSA,A,2,02,30,,,,,,,,,,,1.1,0.8,0.7,3*3C
$PQGSA,A,2,02,03,,,,,,,,,,,1.1,0.8,0.7,6*31
$GNGSA,A,3,06,09,24,26,,,,,,,,,1.1,0.8,0.7,5*37
$GNVTG,7.8,T,7.8,M,1.4,N,2.6,K,A*3C
$GNGGA,030841.00,3533.906753,N,13943.077674,E,1,12,0.8,7.0,M,39.3,M,,*78
$GNRMC,030841.00,A,3533.906753,N,13943.077674,E,1.4,7.8,070323,4.9,W,A,V*4E
$GBGSV,4,1,13,06,68,246,23,07,46,264,18,09,61,286,27,24,26,307,37*6C
$GBGSV,4,2,13,26,71,344,34,29,31,045,30,01,46,171,,02,18,247,*6C
$GBGSV,4,3,13,03,36,222,,04,42,147,,10,33,260,,12,10,205,*6A
$GBGSV,4,4,13,14,04,274,*59
$GPGSV,3,1,10,02,07,035,21,04,32,274,32,08,27,229,21,09,15,307,43,1*6B
$GPGSV,3,2,10,16,60,327,38,18,32,070,34,26,56,053,38,28,25,140,22,1*62
$GPGSV,3,3,10,31,36,137,26,27,61,233,,1*63
$GLGSV,2,1,08,77,26,317,24,76,58,014,36,75,29,094,36,87,28,182,25,1*70
$GLGSV,2,2,08,85,32,035,25,67,14,296,36,66,10,246,,68,01,341,,1*79
$GAGSV,1,1,02,02,62,340,33,30,21,288,44,7*72
$PQGSV,1,1,02,194,82,011,32,195,47,165,32,0*7B
$GBGSV,4,1,13,06,68,246,29,07,46,264,24,09,61,286,33,24,26,307,43,0*73
$GBGSV,4,2,13,26,71,344,40,29,31,045,35,01,46,171,,02,18,247,,0*76
$GBGSV,4,3,13,03,36,222,,04,42,147,,10,33,260,,12,10,205,,0*76
$GBGSV,4,4,13,14,04,274,,0*45
$GNGSA,A,3,04,09,16,18,26,28,31,,,,,,1.1,0.8,0.7,1*31
$GNGSA,A,3,67,75,76,77,85,,,,,,,,1.1,0.8,0.7,2*32
$GNGSA,A,2,02,30,,,,,,,,,,,1.1,0.8,0.7,3*3C
$PQGSA,A,2,02,03,,,,,,,,,,,1.1,0.8,0.7,6*31
$GNGSA,A,3,06,09,24,26,,,,,,,,,1.1,0.8,0.7,5*37
$GNVTG,,T,,M,0.0,N,0.0,K,A*3D
$GNGGA,030842.00,3533.905604,N,13943.078143,E,1,12,0.8,5.0,M,39.3,M,,*75
$GNRMC,030842.00,A,3533.905604,N,13943.078143,E,0.0,,070323,4.9,W,A,V*65
$GBGSV,4,1,13,06,68,246,23,07,46,264,17,09,61,286,27,24,26,307,37*63
$GBGSV,4,2,13,26,71,344,34,29,31,045,30,01,46,171,,02,18,247,*6C
$GBGSV,4,3,13,03,36,222,,04,42,147,,10,33,260,,12,10,205,*6A
$GBGSV,4,4,13,14,04,274,*59
$GPGSV,3,1,10,02,07,035,22,04,32,274,31,08,27,229,21,09,15,307,42,1*6A
$GPGSV,3,2,10,16,60,327,39,18,32,070,34,26,56,053,38,27,61,233,20,1*69
$GPGSV,3,3,10,28,25,140,30,31,36,137,32,1*6D
$GLGSV,2,1,08,77,26,317,23,76,58,014,35,75,29,094,34,87,28,182,25,1*76
$GLGSV,2,2,08,85,32,035,24,67,14,296,37,66,10,246,,68,01,341,,1*79
$GAGSV,1,1,02,02,62,340,33,30,21,288,43,7*75
$PQGSV,1,1,02,194,82,011,26,195,47,165,30,0*7C
$GBGSV,4,1,13,06,68,246,29,07,46,264,23,09,61,286,33,24,26,307,43,0*74
$GBGSV,4,2,13,26,71,344,40,29,31,045,35,01,46,171,,02,18,247,,0*76
$GBGSV,4,3,13,03,36,222,,04,42,147,,10,33,260,,12,10,205,,0*76
$GBGSV,4,4,13,14,04,274,,0*45
$GNGSA,A,3,04,09,16,18,26,28,31,,,,,,1.1,0.8,0.7,1*31
$GNGSA,A,3,67,75,76,77,85,,,,,,,,1.1,0.8,0.7,2*32
$GNGSA,A,2,02,30,,,,,,,,,,,1.1,0.8,0.7,3*3C
$PQGSA,A,2,02,03,,,,,,,,,,,1.1,0.8,0.7,6*31
$GNGSA,A,3,06,09,24,26,,,,,,,,,1.1,0.8,0.7,5*37
$GNVTG,,T,,M,0.0,N,0.0,K,A*3D
$GNGGA,030843.00,3533.905294,N,13943.078562,E,1,12,0.8,5.1,M,39.3,M,,*7F
$GNRMC,030843.00,A,3533.905294,N,13943.078562,E,0.0,,070323,4.9,W,A,V*6E
$GBGSV,4,1,13,06,68,246,23,07,46,264,17,09,61,286,27,24,26,307,37*63
$GBGSV,4,2,13,26,71,344,34,29,31,045,30,01,46,171,,02,18,247,*6C
$GBGSV,4,3,13,03,36,222,,04,42,147,,10,33,260,,12,10,205,*6A
$GBGSV,4,4,13,14,04,274,*59
$GPGSV,3,1,10,02,07,035,23,04,32,274,22,08,27,229,22,09,15,307,39,1*66
$GPGSV,3,2,10,16,60,327,36,18,32,070,35,26,56,053,36,27,61,233,27,1*6E
$GPGSV,3,3,10,28,25,140,30,31,36,137,32,1*6D
$GLGSV,2,1,08,77,26,317,22,76,58,014,32,75,29,094,37,87,28,182,24,1*72
$GLGSV,2,2,08,85,32,035,23,67,14,296,38,66,10,246,,68,01,341,,1*71
$GAGSV,1,1,02,02,62,340,32,30,21,288,42,7*75
$PQGSV,1,1,02,194,82,011,33,195,47,165,32,0*7A
$GBGSV,4,1,13,06,68,246,29,07,46,264,23,09,61,286,33,24,26,307,43,0*74
$GBGSV,4,2,13,26,71,344,40,29,31,045,35,01,46,171,,02,18,247,,0*76
$GBGSV,4,3,13,03,36,222,,04,42,147,,10,33,260,,12,10,205,,0*76
$GBGSV,4,4,13,14,04,274,,0*45
$GNGSA,A,3,04,09,16,18,26,27,28,31,,,,,1.1,0.8,0.7,1*34
$GNGSA,A,3,67,75,76,77,85,,,,,,,,1.1,0.8,0.7,2*32
$GNGSA,A,2,02,30,,,,,,,,,,,1.1,0.8,0.7,3*3C
$PQGSA,A,2,02,03,,,,,,,,,,,1.1,0.8,0.7,6*31
$GNGSA,A,3,06,09,24,26,,,,,,,,,1.1,0.8,0.7,5*37
$GNVTG,,T,,M,0.0,N,0.0,K,A*3D
$GNGGA,030844.00,3533.905406,N,13943.078741,E,1,12,0.8,6.2,M,39.3,M,,*76
$GNRMC,030844.00,A,3533.905406,N,13943.078741,E,0.0,,070323,4.9,W,A,V*67
$GBGSV,4,1,13,06,68,246,23,07,46,264,18,09,61,286,27,24,26,307,37*6C
$GBGSV,4,2,13,26,71,344,34,29,31,045,30,01,46,171,,02,18,247,*6C
$GBGSV,4,3,13,03,36,222,,04,42,147,,10,33,260,,12,10,205,*6A
$GBGSV,4,4,13,14,04,274,*59
$GPGSV,3,1,10,02,07,035,22,08,27,229,23,09,15,307,32,16,60,327,40,1*6A
$GPGSV,3,2,10,18,32,070,33,26,56,053,38,27,61,233,22,28,25,140,26,1*6D
$GPGSV,3,3,10,31,36,137,32,04,32,274,,1*62
$GLGSV,2,1,08,77,26,317,22,76,58,014,31,75,29,094,35,87,28,182,25,1*72
$GLGSV,2,2,08,85,32,035,24,67,14,296,40,66,10,246,,68,01,341,,1*79
$GAGSV,1,1,02,02,62,340,35,30,21,288,38,7*7F
$PQGSV,1,1,02,194,82,011,34,195,47,165,25,0*7B
$GBGSV,4,1,13,06,68,246,29,07,46,264,23,09,61,286,33,24,26,307,43,0*74
$GBGSV,4,2,13,26,71,344,40,29,31,045,35,01,46,171,,02,18,247,,0*76
$GBGSV,4,3,13,03,36,222,,04,42,147,,10,33,260,,12,10,205,,0*76
$GBGSV,4,4,13,14,04,274,,0*45
$GNGSA,A,3,02,04,08,09,16,18,26,27,28,31,,,0.9,0.6,0.7,1*39
$GNGSA,A,3,67,75,76,77,85,87,,,,,,,0.9,0.6,0.7,2*3A
$GNGSA,A,2,02,30,,,,,,,,,,,0.9,0.6,0.7,3*3B
$PQGSA,A,2,02,03,,,,,,,,,,,0.9,0.6,0.7,6*36
$GNGSA,A,3,06,07,09,26,,,,,,,,,0.9,0.6,0.7,5*31
$GNVTG,,T,,M,0.0,N,0.0,K,A*3D
$GNGGA,030845.00,3533.904887,N,13943.078993,E,1,12,0.6,5.8,M,39.3,M,,*75
$GNRMC,030845.00,A,3533.904887,N,13943.078993,E,0.0,,070323,4.9,W,A,V*63
$GBGSV,4,1,13,06,68,246,23,07,46,264,18,09,61,286,27,24,26,307,37*6C
$GBGSV,4,2,13,26,71,344,34,29,31,045,30,01,46,171,,02,18,247,*6C
$GBGSV,4,3,13,03,36,222,,04,42,147,,10,33,260,,12,10,205,*6A
$GBGSV,4,4,13,14,04,274,*59
$GPGSV,3,1,10,02,07,035,22,08,27,229,23,09,15,307,33,16,60,327,40,1*6B
$GPGSV,3,2,10,18,32,070,37,26,56,053,33,27,61,233,26,28,25,140,29,1*69
$GPGSV,3,3,10,31,36,137,32,04,32,274,,1*62
$GLGSV,2,1,08,77,26,317,21,76,58,014,29,75,29,094,25,87,28,182,24,1*78
$GLGSV,2,2,08,85,32,035,28,67,14,296,40,66,10,246,,68,01,341,,1*75
$GAGSV,1,1,02,02,62,340,32,30,21,288,38,7*78
$PQGSV,1,1,02,194,82,011,29,195,47,165,29,0*7B
$GBGSV,4,1,13,06,68,246,29,07,46,264,24,09,61,286,33,24,26,307,43,0*73
$GBGSV,4,2,13,26,71,344,40,29,31,045,35,01,46,171,,02,18,247,,0*76
$GBGSV,4,3,13,03,36,222,,04,42,147,,10,33,260,,12,10,205,,0*76
$GBGSV,4,4,13,14,04,274,,0*45
$GNGSA,A,3,02,04,08,09,16,18,26,27,28,31,,,0.9,0.6,0.7,1*39
$GNGSA,A,3,67,75,76,77,85,87,,,,,,,0.9,0.6,0.7,2*3A
$GNGSA,A,2,02,30,,,,,,,,,,,0.9,0.6,0.7,3*3B
$PQGSA,A,2,02,03,,,,,,,,,,,0.9,0.6,0.7,6*36
$GNGSA,A,2,06,07,,,,,,,,,,,0.9,0.6,0.7,5*3D
$GNVTG,,T,,M,0.0,N,0.0,K,A*3D
$GNGGA,030846.00,3533.905171,N,13943.079195,E,1,12,0.6,6.1,M,39.3,M,,*72
$GNRMC,030846.00,A,3533.905171,N,13943.079195,E,0.0,,070323,4.9,W,A,V*6E
$GBGSV,4,1,13,06,68,246,23,07,46,264,18,09,61,286,27,24,26,307,37*6C
$GBGSV,4,2,13,26,71,344,34,29,31,045,30,01,46,171,,02,18,247,*6C
$GBGSV,4,3,13,03,36,222,,04,42,147,,10,33,260,,12,10,205,*6A
$GBGSV,4,4,13,14,04,274,*59
$GPGSV,3,1,10,02,07,035,21,04,32,274,30,08,27,229,23,09,15,307,32,1*6D
$GPGSV,3,2,10,16,60,327,38,18,32,070,36,26,56,053,30,27,61,233,27,1*65
$GPGSV,3,3,10,28,25,140,27,31,36,137,35,1*6C
$GLGSV,2,1,08,77,26,317,21,76,58,014,32,75,29,094,25,87,28,182,22,1*74
$GLGSV,2,2,08,85,32,035,28,67,14,296,39,66,10,246,,68,01,341,,1*7B
$GAGSV,1,1,02,02,62,340,32,30,21,288,38,7*78
$PQGSV,1,1,02,194,82,011,30,195,47,165,31,0*7A
$GBGSV,4,1,13,06,68,246,29,07,46,264,23,09,61,286,33,24,26,307,43,0*74
$GBGSV,4,2,13,26,71,344,40,29,31,045,35,01,46,171,,02,18,247,,0*76
$GBGSV,4,3,13,03,36,222,,04,42,147,,10,33,260,,12,10,205,,0*76
$GBGSV,4,4,13,14,04,274,,0*45
$GNGSA,A,3,02,04,08,09,16,18,26,27,28,31,,,0.9,0.6,0.7,1*39
$GNGSA,A,3,67,75,76,77,85,87,,,,,,,0.9,0.6,0.7,2*3A
$GNGSA,A,2,02,30,,,,,,,,,,,0.9,0.6,0.7,3*3B
$PQGSA,A,2,02,03,,,,,,,,,,,0.9,0.6,0.7,6*36
$GNGSA,A,2,07,,,,,,,,,,,,0.9,0.6,0.7,5*3B
$GNVTG,,T,,M,0.0,N,0.0,K,A*3D
$GNGGA,030847.00,3533.905425,N,13943.079218,E,1,12,0.6,6.2,M,39.3,M,,*72
$GNRMC,030847.00,A,3533.905425,N,13943.079218,E,0.0,,070323,4.9,W,A,V*6D
$GBGSV,4,1,13,06,68,246,23,07,46,264,18,09,61,286,27,24,26,307,37*6C
$GBGSV,4,2,13,26,71,344,34,29,31,045,30,01,46,171,,02,18,247,*6C
$GBGSV,4,3,13,03,36,222,,04,42,147,,10,33,260,,12,10,205,*6A
$GBGSV,4,4,13,14,04,274,*59
$GPGSV,3,1,10,02,07,035,20,04,32,274,28,08,27,229,23,09,15,307,32,1*65
$GPGSV,3,2,10,16,60,327,39,18,32,070,37,26,56,053,34,27,61,233,27,1*61
$GPGSV,3,3,10,28,25,140,27,31,36,137,33,1*6A
$GLGSV,2,1,08,77,26,317,20,76,58,014,30,75,29,094,28,87,28,182,24,1*7C
$GLGSV,2,2,08,85,32,035,28,67,14,296,39,66,10,246,,68,01,341,,1*7B
$GAGSV,1,1,02,02,62,340,32,30,21,288,38,7*78
$PQGSV,1,1,02,194,82,011,30,195,47,165,29,0*73
$GBGSV,4,1,13,06,68,246,29,07,46,264,23,09,61,286,33,24,26,307,43,0*74
$GBGSV,4,2,13,26,71,344,40,29,31,045,35,01,46,171,,02,18,247,,0*76
$GBGSV,4,3,13,03,36,222,,04,42,147,,10,33,260,,12,10,205,,0*76
$GBGSV,4,4,13,14,04,274,,0*45
$GNGSA,A,3,02,04,08,09,16,18,26,27,28,31,,,0.9,0.6,0.7,1*39
$GNGSA,A,3,67,75,76,77,85,87,,,,,,,0.9,0.6,0.7,2*3A
$GNGSA,A,2,02,30,,,,,,,,,,,0.9,0.6,0.7,3*3B
$PQGSA,A,2,02,03,,,,,,,,,,,0.9,0.6,0.7,6*36
$GNGSA,A,2,07,,,,,,,,,,,,0.9,0.6,0.7,5*3B
$GNVTG,,T,,M,0.0,N,0.0,K,A*3D
$GNGGA,030848.00,3533.905321,N,13943.079099,E,1,12,0.6,6.5,M,39.3,M,,*72
$GNRMC,030848.00,A,3533.905321,N,13943.079099,E,0.0,,070323,4.9,W,A,V*6A
$GBGSV,4,1,13,06,68,246,23,07,46,264,18,09,61,286,27,24,26,307,37*6C
$GBGSV,4,2,13,26,71,344,34,29,31,045,30,01,46,171,,02,18,247,*6C
$GBGSV,4,3,13,03,36,222,,04,42,147,,10,33,260,,12,10,205,*6A
$GBGSV,4,4,13,14,04,274,*59
$GPGSV,3,1,10,02,07,035,20,04,32,274,26,08,27,229,22,09,15,307,35,1*6D
$GPGSV,3,2,10,16,60,327,39,18,32,070,27,26,56,053,36,27,61,233,23,1*66
$GPGSV,3,3,10,28,25,140,26,31,36,137,37,1*6F
$GLGSV,2,1,08,77,26,317,20,76,58,014,31,75,29,094,35,87,28,182,26,1*73
$GLGSV,2,2,08,85,32,035,21,67,14,296,36,66,10,246,,68,01,341,,1*7D
$GAGSV,1,1,02,02,62,340,36,30,21,288,39,7*7D
$PQGSV,1,1,02,194,82,011,31,195,47,165,29,0*72
$GBGSV,4,1,13,06,68,246,29,07,46,264,23,09,61,286,33,24,26,307,43,0*74
$GBGSV,4,2,13,26,71,344,40,29,31,045,35,01,46,171,,02,18,247,,0*76
$GBGSV,4,3,13,03,36,222,,04,42,147,,10,33,260,,12,10,205,,0*76
$GBGSV,4,4,13,14,04,274,,0*45
$GNGSA,A,3,02,04,08,09,16,18,26,27,28,31,,,0.9,0.6,0.7,1*39
$GNGSA,A,3,67,75,76,77,85,87,,,,,,,0.9,0.6,0.7,2*3A
$GNGSA,A,2,02,30,,,,,,,,,,,0.9,0.6,0.7,3*3B
$PQGSA,A,2,02,03,,,,,,,,,,,0.9,0.6,0.7,6*36
$GNGSA,A,2,07,,,,,,,,,,,,0.9,0.6,0.7,5*3B
$GNVTG,,T,,M,0.0,N,0.0,K,A*3D
$GNGGA,030849.00,3533.905573,N,13943.079287,E,1,12,0.6,5.7,M,39.3,M,,*7E
$GNRMC,030849.00,A,3533.905573,N,13943.079287,E,0.0,,070323,4.9,W,A,V*67
$GBGSV,4,1,13,01,46,171,21,06,68,246,23,07,46,264,18,09,61,286,27*69
$GBGSV,4,2,13,24,26,307,37,26,71,344,34,29,31,045,30,02,18,247,*6A
$GBGSV,4,3,13,03,36,222,,04,42,147,,10,33,260,,12,10,205,*6A
$GBGSV,4,4,13,14,04,274,*59
$GPGSV,3,1,10,02,07,035,20,04,32,274,28,08,27,229,22,09,15,307,42,1*63
$GPGSV,3,2,10,16,60,327,42,18,32,070,35,26,56,053,35,27,61,233,25,1*6C
$GPGSV,3,3,10,28,25,140,25,31,36,137,32,1*69
$GLGSV,2,1,08,77,26,317,19,76,58,014,36,75,29,094,35,87,28,182,25,1*7D
$GLGSV,2,2,08,85,32,035,21,67,14,296,34,66,10,246,,68,01,341,,1*7F
$GAGSV,1,1,02,02,62,340,34,30,21,288,43,7*72
$PQGSV,1,1,02,194,82,011,25,195,47,165,30,0*7F
$GBGSV,4,1,13,01,46,171,26,06,68,246,29,07,46,264,23,09,61,286,33,0*75
$GBGSV,4,2,13,24,26,307,43,26,71,344,40,29,31,045,35,02,18,247,,0*73
$GBGSV,4,3,13,03,36,222,,04,42,147,,10,33,260,,12,10,205,,0*76
$GBGSV,4,4,13,14,04,274,,0*45
$GNGSA,A,3,02,04,08,09,16,18,26,27,28,31,,,0.9,0.6,0.7,1*39
$GNGSA,A,3,67,75,76,77,85,87,,,,,,,0.9,0.6,0.7,2*3A
$GNGSA,A,2,02,30,,,,,,,,,,,0.9,0.6,0.7,3*3B
$PQGSA,A,2,02,03,,,,,,,,,,,0.9,0.6,0.7,6*36
$GNGSA,A,2,07,,,,,,,,,,,,0.9,0.6,0.7,5*3B
$GNVTG,0.9,T,0.9,M,2.4,N,4.5,K,A*3A
$GNGGA,030850.00,3533.905595,N,13943.079093,E,1,12,0.6,5.7,M,39.3,M,,*79
$GNRMC,030850.00,A,3533.905595,N,13943.079093,E,2.4,0.9,070323,4.9,W,A,V*41
$GBGSV,4,1,13,01,46,171,21,06,68,246,23,07,46,264,18,09,61,286,27*69
$GBGSV,4,2,13,24,26,307,37,26,71,344,34,29,31,045,30,02,18,247,*6A
$GBGSV,4,3,13,03,36,222,,04,42,147,,10,33,260,,12,10,205,*6A
$GBGSV,4,4,13,14,04,274,*59
$GPGSV,3,1,10,02,07,035,20,04,32,274,27,08,27,229,25,09,15,307,43,1*6A
$GPGSV,3,2,10,16,60,327,41,18,32,070,36,26,56,053,36,27,61,233,28,1*62
$GPGSV,3,3,10,28,25,140,26,31,36,137,31,1*69
$GLGSV,2,1,08,77,26,317,25,76,58,014,35,75,29,094,34,87,28,182,24,1*71
$GLGSV,2,2,08,85,32,035,23,67,14,296,38,66,10,246,,68,01,341,,1*71
$GAGSV,1,1,02,02,62,340,34,30,21,288,45,7*74
$PQGSV,1,1,02,194,82,011,29,195,47,165,31,0*72
$GBGSV,4,1,13,01,46,171,27,06,68,246,29,07,46,264,23,09,61,286,33,0*74
$GBGSV,4,2,13,24,26,307,43,26,71,344,40,29,31,045,35,02,18,247,,0*73
$GBGSV,4,3,13,03,36,222,,04,42,147,,10,33,260,,12,10,205,,0*76
$GBGSV,4,4,13,14,04,274,,0*45
$GNGSA,A,3,02,04,08,09,16,18,26,27,28,31,,,0.9,0.6,0.7,1*39
$GNGSA,A,3,67,75,76,77,85,87,,,,,,,0.9,0.6,0.7,2*3A
$GNGSA,A,2,02,30,,,,,,,,,,,0.9,0.6,0.7,3*3B
$PQGSA,A,2,02,03,,,,,,,,,,,0.9,0.6,0.7,6*36
$GNGSA,A,2,07,,,,,,,,,,,,0.9,0.6,0.7,5*3B
$GNVTG,196.7,T,196.7,M,3.1,N,5.8,K,A*32
$GNGGA,030851.00,3533.905199,N,13943.078877,E,1,12,0.6,4.5,M,39.3,M,,*70
$GNRMC,030851.00,A,3533.905199,N,13943.078877,E,3.1,196.7,070323,4.9,W,A,V*4F
$GBGSV,4,1,13,01,46,171,23,03,36,222,21,06,68,246,23,07,46,264,18*6B
$GBGSV,4,2,13,09,61,286,27,10,33,260,19,24,26,307,37,26,71,344,34*61
$GBGSV,4,3,13,29,31,045,30,02,18,247,,04,42,147,,12,10,205,*6A
$GBGSV,4,4,13,14,04,274,*59
$GPGSV,3,1,10,02,07,035,20,04,32,274,35,08,27,229,27,09,15,307,44,1*6C
$GPGSV,3,2,10,16,60,327,36,18,32,070,26,26,56,053,40,27,61,233,23,1*69
$GPGSV,3,3,10,28,25,140,28,31,36,137,34,1*62
$GLGSV,2,1,08,77,26,317,24,76,58,014,37,75,29,094,34,87,28,182,29,1*7F
$GLGSV,2,2,08,85,32,035,26,67,14,296,39,66,10,246,,68,01,341,,1*75
$GAGSV,1,1,02,02,62,340,32,30,21,288,44,7*73
$PQGSV,1,1,02,194,82,011,29,195,47,165,31,0*72
$GBGSV,4,1,13,01,46,171,28,03,36,222,27,06,68,246,29,07,46,264,23,0*78
$GBGSV,4,2,13,09,61,286,33,10,33,260,24,24,26,307,43,26,71,344,40,0*76
$GBGSV,4,3,13,29,31,045,35,02,18,247,,04,42,147,,12,10,205,,0*73
$GBGSV,4,4,13,14,04,274,,0*45
$GNGSA,A,3,02,04,08,09,16,18,26,27,28,31,,,0.9,0.6,0.7,1*39
$GNGSA,A,3,67,75,76,77,85,87,,,,,,,0.9,0.6,0.7,2*3A
$GNGSA,A,2,02,30,,,,,,,,,,,0.9,0.6,0.7,3*3B
$PQGSA,A,2,02,03,,,,,,,,,,,0.9,0.6,0.7,6*36
$GNGSA,A,2,07,,,,,,,,,,,,0.9,0.6,0.7,5*3B
$GNVTG,192.5,T,192.5,M,2.5,N,4.7,K,A*39
$GNGGA,030852.00,3533.904268,N,13943.078585,E,1,12,0.6,4.9,M,39.3,M,,*73
$GNRMC,030852.00,A,3533.904268,N,13943.078585,E,2.5,192.5,070323,4.9,W,A,V*43
$GBGSV,4,1,13,01,46,171,23,03,36,222,25,06,68,246,23,07,46,264,18*6F
$GBGSV,4,2,13,09,61,286,27,10,33,260,19,24,26,307,37,26,71,344,34*61
$GBGSV,4,3,13,29,31,045,30,02,18,247,,04,42,147,,12,10,205,*6A
$GBGSV,4,4,13,14,04,274,*59
$GPGSV,3,1,10,02,07,035,21,04,32,274,25,08,27,229,24,09,15,307,43,1*68
$GPGSV,3,2,10,16,60,327,40,18,32,070,29,26,56,053,38,27,61,233,27,1*6C
$GPGSV,3,3,10,28,25,140,31,31,36,137,35,1*6B
$GLGSV,2,1,08,77,26,317,23,76,58,014,34,75,29,094,35,87,28,182,28,1*7B
$GLGSV,2,2,08,85,32,035,28,67,14,296,37,66,10,246,,68,01,341,,1*75
$GAGSV,1,1,02,02,62,340,39,30,21,288,44,7*78
$PQGSV,1,1,02,194,82,011,30,195,47,165,32,0*79
$GBGSV,4,1,13,01,46,171,28,03,36,222,31,06,68,246,29,07,46,264,23,0*7F
$GBGSV,4,2,13,09,61,286,33,10,33,260,25,24,26,307,43,26,71,344,40,0*77
$GBGSV,4,3,13,29,31,045,35,02,18,247,,04,42,147,,12,10,205,,0*73
$GBGSV,4,4,13,14,04,274,,0*45
$GNGSA,A,3,02,04,08,09,16,18,26,27,28,31,,,0.9,0.6,0.7,1*39
$GNGSA,A,3,67,75,76,77,85,87,,,,,,,0.9,0.6,0.7,2*3A
$GNGSA,A,2,02,30,,,,,,,,,,,0.9,0.6,0.7,3*3B
$PQGSA,A,2,02,03,,,,,,,,,,,0.9,0.6,0.7,6*36
$GNGSA,A,2,07,,,,,,,,,,,,0.9,0.6,0.7,5*3B
$GNVTG,178.7,T,178.7,M,0.9,N,1.7,K,A*32
$GNGGA,030853.00,3533.903849,N,13943.078576,E,1,12,0.6,4.3,M,39.3,M,,*7A
$GNRMC,030853.00,A,3533.903849,N,13943.078576,E,0.9,178.7,070323,4.9,W,A,V*48
$GBGSV,4,1,13,01,46,171,23,03,36,222,25,06,68,246,21,07,46,264,18*6D
$GBGSV,4,2,13,09,61,286,26,10,33,260,26,24,26,307,40,26,71,344,35*6D
$GBGSV,4,3,13,29,31,045,23,02,18,247,,04,42,147,,12,10,205,*68
$GBGSV,4,4,13,14,04,274,*59
$GPGSV,3,1,10,02,07,035,21,04,32,274,27,08,27,229,27,09,15,307,41,1*6B
$GPGSV,3,2,10,16,60,327,40,18,32,070,24,26,56,053,39,27,61,233,26,1*61
$GPGSV,3,3,10,28,25,140,27,31,36,137,33,1*6A
$GLGSV,2,1,08,77,26,317,24,76,58,014,37,75,29,094,33,87,28,182,25,1*74
$GLGSV,2,2,08,85,32,035,28,67,14,296,35,66,10,246,,68,01,341,,1*77
$GAGSV,1,1,02,02,62,340,38,30,21,288,41,7*7C
$PQGSV,1,1,02,194,82,011,28,195,47,165,28,0*7B
$GBGSV,4,1,13,01,46,171,29,03,36,222,31,06,68,246,26,07,46,264,23,0*71
$GBGSV,4,2,13,09,61,286,32,10,33,260,32,24,26,307,46,26,71,344,40,0*75
$GBGSV,4,3,13,29,31,045,28,02,18,247,,04,42,147,,12,10,205,,0*7F
$GBGSV,4,4,13,14,04,274,,0*45
$GNGSA,A,3,02,04,08,09,16,18,26,27,28,31,,,0.9,0.6,0.7,1*39
$GNGSA,A,3,67,75,76,77,85,87,,,,,,,0.9,0.6,0.7,2*3A
$GNGSA,A,2,02,30,,,,,,,,,,,0.9,0.6,0.7,3*3B
$PQGSA,A,2,02,03,,,,,,,,,,,0.9,0.6,0.7,6*36
$GNGSA,A,3,06,09,10,24,26,,,,,,,,0.9,0.6,0.7,5*31
$GNVTG,148.1,T,148.1,M,1.0,N,1.8,K,A*35
$GNGGA,030854.00,3533.903731,N,13943.078750,E,1,12,0.6,4.6,M,39.3,M,,*7E
$GNRMC,030854.00,A,3533.903731,N,13943.078750,E,1.0,148.1,070323,4.9,W,A,V*44
$GBGSV,4,1,13,01,46,171,23,03,36,222,25,06,68,246,17,07,46,264,16*66
$GBGSV,4,2,13,09,61,286,24,10,33,260,24,24,26,307,38,26,71,344,35*62
$GBGSV,4,3,13,29,31,045,23,02,18,247,,04,42,147,,12,10,205,*68
$GBGSV,4,4,13,14,04,274,*59
$GPGSV,3,1,10,02,07,035,21,04,32,274,29,08,27,229,30,09,15,307,38,1*6D
$GPGSV,3,2,10,16,60,327,42,18,32,070,32,26,56,053,39,27,61,233,29,1*6B
$GPGSV,3,3,10,28,25,140,25,31,36,137,34,1*6F
$GLGSV,2,1,08,77,26,317,24,76,58,014,37,75,29,094,32,87,28,182,30,1*71
$GLGSV,2,2,08,85,32,035,26,67,14,296,36,66,10,246,,68,01,341,,1*7A
$GAGSV,1,1,02,02,62,340,38,30,21,288,40,7*7D
$PQGSV,1,1,02,194,82,011,30,195,47,165,31,0*7A
$GBGSV,4,1,13,01,46,171,29,03,36,222,31,06,68,246,22,07,46,264,22,0*74
$GBGSV,4,2,13,09,61,286,29,10,33,260,30,24,26,307,43,26,71,344,41,0*79
$GBGSV,4,3,13,29,31,045,29,02,18,247,,04,42,147,,12,10,205,,0*7E
$GBGSV,4,4,13,14,04,274,,0*45
$GNGSA,A,3,04,08,09,16,18,26,27,28,31,,,,1.0,0.6,0.7,1*33
$GNGSA,A,3,67,75,76,85,87,,,,,,,,1.0,0.6,0.7,2*32
$GNGSA,A,2,02,30,,,,,,,,,,,1.0,0.6,0.7,3*33
$PQGSA,A,2,02,03,,,,,,,,,,,1.0,0.6,0.7,6*3E
$GNGSA,A,3,06,09,10,24,26,,,,,,,,1.0,0.6,0.7,5*39
$GNVTG,109.9,T,109.9,M,0.8,N,1.5,K,A*31
$GNGGA,030855.00,3533.903635,N,13943.079000,E,1,12,0.6,5.2,M,39.3,M,,*7C
$GNRMC,030855.00,A,3533.903635,N,13943.079000,E,0.8,109.9,070323,4.9,W,A,V*47
$GBGSV,4,1,13,01,46,171,25,03,36,222,24,06,68,246,21,07,46,264,19*6B
$GBGSV,4,2,13,09,61,286,22,10,33,260,23,24,26,307,36,26,71,344,33*6B
$GBGSV,4,3,13,29,31,045,23,02,18,247,,04,42,147,,12,10,205,*68
$GBGSV,4,4,13,14,04,274,*59
$GPGSV,3,1,10,02,07,035,21,04,32,274,30,08,27,229,31,09,15,307,37,1*6B
$GPGSV,3,2,10,16,60,327,43,18,32,070,38,26,56,053,40,27,61,233,24,1*63
$GPGSV,3,3,10,28,25,140,30,31,36,137,39,1*66
$GLGSV,2,1,08,66,10,246,19,77,26,317,24,76,58,014,42,75,29,094,39,1*7C
$GLGSV,2,2,08,87,28,182,34,85,32,035,25,67,14,296,33,68,01,341,,1*74
$GAGSV,1,1,02,02,62,340,37,30,21,288,37,7*72
$PQGSV,1,1,02,194,82,011,30,195,47,165,23,0*79
$GBGSV,4,1,13,01,46,171,31,03,36,222,30,06,68,246,27,07,46,264,24,0*7F
$GBGSV,4,2,13,09,61,286,28,10,33,260,28,24,26,307,41,26,71,344,39,0*7C
$GBGSV,4,3,13,29,31,045,28,02,18,247,,04,42,147,,12,10,205,,0*7F
$GBGSV,4,4,13,14,04,274,,0*45
$GNGSA,A,3,04,08,09,16,18,26,27,28,31,,,,1.0,0.6,0.7,1*33
$GNGSA,A,3,67,75,76,85,87,,,,,,,,1.0,0.6,0.7,2*32
$GNGSA,A,2,02,30,,,,,,,,,,,1.0,0.6,0.7,3*33
$PQGSA,A,2,02,03,,,,,,,,,,,1.0,0.6,0.7,6*3E
$GNGSA,A,3,06,09,10,24,26,,,,,,,,1.0,0.6,0.7,5*39
$GNVTG,113.4,T,113.4,M,1.0,N,1.8,K,A*35
$GNGGA,030856.00,3533.903412,N,13943.079470,E,1,12,0.6,4.0,M,39.3,M,,*78
$GNRMC,030856.00,A,3533.903412,N,13943.079470,E,1.0,113.4,070323,4.9,W,A,V*4F
$GBGSV,4,1,13,01,46,171,25,03,36,222,24,06,68,246,22,07,46,264,21*63
$GBGSV,4,2,13,09,61,286,27,10,33,260,22,24,26,307,31,26,71,344,33*68
$GBGSV,4,3,13,29,31,045,21,02,18,247,,04,42,147,,12,10,205,*6A
$GBGSV,4,4,13,14,04,274,*59
$GPGSV,3,1,10,02,07,035,21,04,32,274,32,08,27,229,29,09,15,307,38,1*6F
$GPGSV,3,2,10,16,60,327,36,18,32,070,42,26,56,053,43,27,61,233,32,1*68
$GPGSV,3,3,10,28,25,140,25,31,36,137,34,1*6F
$GLGSV,2,1,08,66,10,246,19,77,26,317,24,76,58,014,41,75,29,094,37,1*71
$GLGSV,2,2,08,87,28,182,31,85,32,035,25,67,14,296,31,68,01,341,,1*73
$GAGSV,1,1,02,02,62,340,36,30,21,288,31,7*75
$PQGSV,1,1,02,194,82,011,24,195,47,165,31,0*7F
$GBGSV,4,1,13,01,46,171,31,03,36,222,30,06,68,246,28,07,46,264,27,0*73
$GBGSV,4,2,13,09,61,286,33,10,33,260,28,24,26,307,37,26,71,344,39,0*77
$GBGSV,4,3,13,29,31,045,26,02,18,247,,04,42,147,,12,10,205,,0*71
$GBGSV,4,4,13,14,04,274,,0*45
$GNGSA,A,3,04,08,09,16,18,26,27,28,31,,,,1.0,0.6,0.7,1*33
$GNGSA,A,3,67,75,76,85,87,,,,,,,,1.0,0.6,0.7,2*32
$GNGSA,A,2,02,30,,,,,,,,,,,1.0,0.6,0.7,3*33
$PQGSA,A,2,02,03,,,,,,,,,,,1.0,0.6,0.7,6*3E
$GNGSA,A,3,06,07,09,10,24,26,,,,,,,1.0,0.6,0.7,5*3E
$GNVTG,,T,,M,0.0,N,0.0,K,A*3D
$GNGGA,030857.00,3533.903000,N,13943.079864,E,1,12,0.6,4.4,M,39.3,M,,*73
$GNRMC,030857.00,A,3533.903000,N,13943.079864,E,0.0,,070323,4.9,W,A,V*68
$GBGSV,4,1,13,01,46,171,25,03,36,222,24,06,68,246,22,07,46,264,21*63
$GBGSV,4,2,13,09,61,286,24,10,33,260,21,24,26,307,36,26,71,344,32*6E
$GBGSV,4,3,13,29,31,045,21,02,18,247,,04,42,147,,12,10,205,*6A
$GBGSV,4,4,13,14,04,274,*59
$GPGSV,3,1,10,02,07,035,18,04,32,274,31,08,27,229,32,09,15,307,32,1*66
$GPGSV,3,2,10,16,60,327,32,18,32,070,45,26,56,053,36,27,61,233,31,1*6A
$GPGSV,3,3,10,31,36,137,27,28,25,140,,1*6A
$GLGSV,2,1,08,66,10,246,18,77,26,317,24,76,58,014,39,75,29,094,37,1*7F
$GLGSV,2,2,08,87,28,182,30,85,32,035,25,67,14,296,32,68,01,341,,1*71
$GAGSV,1,1,02,02,62,340,35,30,21,288,31,7*76
$PQGSV,1,1,02,194,82,011,30,195,47,165,32,0*79
$GBGSV,4,1,13,01,46,171,31,03,36,222,30,06,68,246,28,07,46,264,27,0*73
$GBGSV,4,2,13,09,61,286,29,10,33,260,26,24,26,307,41,26,71,344,37,0*7D
$GBGSV,4,3,13,29,31,045,26,02,18,247,,04,42,147,,12,10,205,,0*71
$GBGSV,4,4,13,14,04,274,,0*45
$GNGSA,A,3,04,08,09,16,18,26,27,28,31,,,,1.0,0.6,0.7,1*33
$GNGSA,A,3,67,75,76,85,87,,,,,,,,1.0,0.6,0.7,2*32
$GNGSA,A,2,02,30,,,,,,,,,,,1.0,0.6,0.7,3*33
$PQGSA,A,2,02,03,,,,,,,,,,,1.0,0.6,0.7,6*3E
$GNGSA,A,3,06,07,09,10,24,26,,,,,,,1.0,0.6,0.7,5*3E
$GNVTG,,T,,M,0.0,N,0.0,K,A*3D
$GNGGA,030858.00,3533.902612,N,13943.080064,E,1,12,0.6,4.4,M,39.3,M,,*76
$GNRMC,030858.00,A,3533.902612,N,13943.080064,E,0.0,,070323,4.9,W,A,V*6D
$GBGSV,4,1,13,01,46,171,23,03,36,222,24,06,68,246,22,07,46,264,17*60
$GBGSV,4,2,13,09,61,286,24,10,33,260,21,24,26,307,35,26,71,344,33*6C
$GBGSV,4,3,13,02,18,247,,04,42,147,,12,10,205,,14,04,274,*61
$GBGSV,4,4,13,29,31,045,*51
$GPGSV,3,1,10,02,07,035,23,04,32,274,31,08,27,229,31,09,15,307,36,1*69
$GPGSV,3,2,10,16,60,327,34,18,32,070,45,26,56,053,36,27,61,233,32,1*6F
$GPGSV,3,3,10,31,36,137,27,28,25,140,,1*6A
$GLGSV,2,1,08,66,10,246,19,77,26,317,24,76,58,014,40,75,29,094,36,1*71
$GLGSV,2,2,08,87,28,182,29,85,32,035,21,67,14,296,33,68,01,341,,1*7C
$GAGSV,1,1,02,02,62,340,36,30,21,288,31,7*75
$PQGSV,1,1,02,194,82,011,31,195,47,165,34,0*7E
$GBGSV,4,1,13,01,46,171,29,03,36,222,30,06,68,246,28,07,46,264,22,0*7F
$GBGSV,4,2,13,09,61,286,30,10,33,260,27,24,26,307,41,26,71,344,38,0*7B
$GBGSV,4,3,13,02,18,247,,04,42,147,,12,10,205,,14,04,274,,0*7D
$GBGSV,4,4,13,29,31,045,,0*4D
$GNGSA,A,3,04,08,09,16,18,26,27,28,31,,,,1.0,0.6,0.7,1*33
$GNGSA,A,3,67,75,76,85,87,,,,,,,,1.0,0.6,0.7,2*32
$GNGSA,A,2,02,30,,,,,,,,,,,1.0,0.6,0.7,3*33
$PQGSA,A,2,02,03,,,,,,,,,,,1.0,0.6,0.7,6*3E
$GNGSA,A,3,06,07,09,10,24,26,,,,,,,1.0,0.6,0.7,5*3E
$GNVTG,,T,,M,0.0,N,0.0,K,A*3D
$GNGGA,030859.00,3533.902204,N,13943.080247,E,1,12,0.6,4.4,M,39.3,M,,*77
$GNRMC,030859.00,A,3533.902204,N,13943.080247,E,0.0,,070323,4.9,W,A,V*6C
$GBGSV,4,1,13,01,46,171,23,03,36,222,24,06,68,246,17,07,46,264,17*66
$GBGSV,4,2,13,09,61,286,25,10,33,260,24,24,26,307,34,26,71,344,32*68
$GBGSV,4,3,13,02,18,247,,04,42,147,,12,10,205,,14,04,274,*61
$GBGSV,4,4,13,29,31,045,*51
$GPGSV,3,1,10,02,07,035,23,04,32,274,28,08,27,229,30,09,15,307,36,1*60
$GPGSV,3,2,10,16,60,327,41,18,32,070,39,26,56,053,42,27,61,233,26,1*60
$GPGSV,3,3,10,28,25,140,27,31,36,137,36,1*6F
$GLGSV,2,1,08,66,10,246,19,77,26,317,24,76,58,014,41,75,29,094,36,1*70
$GLGSV,2,2,08,87,28,182,33,85,32,035,28,67,14,296,30,68,01,341,,1*7D
$GAGSV,1,1,02,02,62,340,35,30,21,288,31,7*76
$PQGSV,1,1,02,194,82,011,28,195,47,165,23,0*70
$GBGSV,4,1,13,01,46,171,29,03,36,222,30,06,68,246,23,07,46,264,22,0*74
$GBGSV,4,2,13,09,61,286,30,10,33,260,30,24,26,307,40,26,71,344,37,0*73
$GBGSV,4,3,13,02,18,247,,04,42,147,,12,10,205,,14,04,274,,0*7D
$GBGSV,4,4,13,29,31,045,,0*4D
$GNGSA,A,3,04,08,09,16,18,26,27,28,31,,,,1.0,0.6,0.7,1*33
$GNGSA,A,3,67,75,76,85,87,,,,,,,,1.0,0.6,0.7,2*32
$GNGSA,A,2,02,30,,,,,,,,,,,1.0,0.6,0.7,3*33
$PQGSA,A,2,02,03,,,,,,,,,,,1.0,0.6,0.7,6*3E
$GNGSA,A,3,06,07,09,10,24,26,,,,,,,1.0,0.6,0.7,5*3E
$GNVTG,,T,,M,0.0,N,0.0,K,A*3D
$GNGGA,030900.00,3533.901952,N,13943.080191,E,1,12,0.6,4.6,M,39.3,M,,*7B
$GNRMC,030900.00,A,3533.901952,N,13943.080191,E,0.0,,070323,4.9,W,A,V*62
$GBGSV,4,1,13,01,46,171,23,03,36,222,20,06,68,246,19,07,46,264,20*68
$GBGSV,4,2,13,09,61,286,26,10,33,260,23,24,26,307,38,26,71,344,35*67
$GBGSV,4,3,13,02,18,247,,04,42,147,,12,10,205,,14,04,274,*61
$GBGSV,4,4,13,29,31,045,*51
$GPGSV,3,1,10,02,07,035,23,04,32,274,31,08,27,229,30,09,15,307,38,1*66
$GPGSV,3,2,10,16,60,327,41,18,32,070,33,26,56,053,39,27,61,233,28,1*68
$GPGSV,3,3,10,28,25,140,26,31,36,137,35,1*6D
$GLGSV,2,1,08,66,10,246,19,77,26,317,17,76,58,014,35,75,29,094,30,1*75
$GLGSV,2,2,08,87,28,182,30,85,32,035,29,67,14,296,34,68,01,341,,1*7B
$GAGSV,2,1,06,02,62,340,39,08,31,257,32,11,33,060,33,25,41,068,35,7*7A
$GAGSV,2,2,06,30,21,288,38,36,44,126,31,7*7E
$PQGSV,1,1,02,194,82,011,29,195,47,165,29,0*7B
$GBGSV,4,1,13,01,46,171,29,03,36,222,25,06,68,246,24,07,46,264,26,0*73
$GBGSV,4,2,13,09,61,286,32,10,33,260,28,24,26,307,44,26,71,344,40,0*7C
$GBGSV,4,3,13,02,18,247,,04,42,147,,12,10,205,,14,04,274,,0*7D
$GBGSV,4,4,13,29,31,045,,0*4D
$GNGSA,A,3,04,08,09,16,18,26,27,28,31,,,,0.9,0.6,0.7,1*3B
$GNGSA,A,3,67,75,76,85,87,,,,,,,,0.9,0.6,0.7,2*3A
$GNGSA,A,3,02,04,08,11,25,30,,,,,,,0.9,0.6,0.7,3*31
$PQGSA,A,2,02,03,,,,,,,,,,,0.9,0.6,0.7,6*36
$GNGSA,A,3,06,07,09,10,24,26,,,,,,,0.9,0.6,0.7,5*36
$GNVTG,164.6,T,164.6,M,0.7,N,1.3,K,A*38
$GNGGA,030901.00,3533.901850,N,13943.080063,E,1,12,0.6,4.5,M,39.3,M,,*76
$GNRMC,030901.00,A,3533.901850,N,13943.080063,E,0.7,164.6,070323,4.9,W,A,V*40
$GBGSV,4,1,13,01,46,171,23,03,36,222,20,06,68,246,23,07,46,264,20*61
$GBGSV,4,2,13,09,61,286,23,10,33,260,21,24,26,307,39,26,71,344,31*65
$GBGSV,4,3,13,02,18,247,,04,42,147,,12,10,205,,14,04,274,*61
$GBGSV,4,4,13,29,31,045,*51
$GPGSV,3,1,10,02,07,035,23,04,32,274,31,08,27,229,23,09,15,307,40,1*6B
$GPGSV,3,2,10,16,60,327,39,18,32,070,31,26,56,053,35,27,61,233,29,1*68
$GPGSV,3,3,10,28,25,140,25,31,36,137,35,1*6E
$GLGSV,2,1,08,66,10,246,20,77,26,317,22,76,58,014,35,75,29,094,27,1*7F
$GLGSV,2,2,08,87,28,182,26,85,32,035,21,67,14,296,34,68,01,341,,1*74
$GAGSV,2,1,06,02,62,340,37,08,31,257,30,11,33,060,34,25,41,068,35,7*71
$GAGSV,2,2,06,30,21,288,40,36,44,126,29,7*78
$PQGSV,1,1,02,194,82,011,25,195,47,165,28,0*76
$GBGSV,4,1,13,01,46,171,29,03,36,222,25,06,68,246,29,07,46,264,26,0*7E
$GBGSV,4,2,13,09,61,286,29,10,33,260,27,24,26,307,45,26,71,344,36,0*79
$GBGSV,4,3,13,02,18,247,,04,42,147,,12,10,205,,14,04,274,,0*7D
$GBGSV,4,4,13,29,31,045,,0*4D
$GNGSA,A,3,04,08,09,16,18,26,27,28,31,,,,0.9,0.6,0.7,1*3B
$GNGSA,A,3,67,75,76,85,87,,,,,,,,0.9,0.6,0.7,2*3A
$GNGSA,A,3,02,04,08,11,25,30,,,,,,,0.9,0.6,0.7,3*31
$PQGSA,A,2,02,03,,,,,,,,,,,0.9,0.6,0.7,6*36
$GNGSA,A,3,06,07,09,10,24,26,,,,,,,0.9,0.6,0.7,5*36
$GNVTG,33.9,T,33.9,M,1.3,N,2.3,K,A*3E
$GNGGA,030902.00,3533.901980,N,13943.080112,E,1,12,0.6,4.5,M,39.3,M,,*7E
$GNRMC,030902.00,A,3533.901980,N,13943.080112,E,1.3,33.9,070323,4.9,W,A,V*71
$GBGSV,4,1,13,01,46,171,23,03,36,222,20,06,68,246,17,07,46,264,15*60
$GBGSV,4,2,13,09,61,286,27,10,33,260,22,24,26,307,38,26,71,344,37*65
$GBGSV,4,3,13,02,18,247,,04,42,147,,12,10,205,,14,04,274,*61
$GBGSV,4,4,13,29,31,045,*51
$GPGSV,3,1,10,02,07,035,19,04,32,274,30,08,27,229,24,09,15,307,42,1*66
$GPGSV,3,2,10,16,60,327,40,18,32,070,28,26,56,053,38,27,61,233,28,1*62
$GPGSV,3,3,10,28,25,140,25,31,36,137,32,1*69
$GLGSV,2,1,08,66,10,246,19,77,26,317,22,76,58,014,34,75,29,094,32,1*70
$GLGSV,2,2,08,87,28,182,21,85,32,035,28,67,14,296,34,68,01,341,,1*7A
$GAGSV,2,1,07,02,62,340,39,07,14,310,28,08,31,257,30,11,33,060,34,7*7E
$GAGSV,2,2,07,25,41,068,30,30,21,288,43,36,44,126,29,7*45
$PQGSV,1,1,02,194,82,011,26,195,47,165,28,0*75
$GBGSV,4,1,13,01,46,171,29,03,36,222,25,06,68,246,23,07,46,264,20,0*72
$GBGSV,4,2,13,09,61,286,33,10,33,260,28,24,26,307,43,26,71,344,42,0*78
$GBGSV,4,3,13,02,18,247,,04,42,147,,12,10,205,,14,04,274,,0*7D
$GBGSV,4,4,13,29,31,045,,0*4D
$GNGSA,A,3,04,08,09,16,18,26,27,28,31,,,,0.9,0.6,0.7,1*3B
$GNGSA,A,3,67,75,76,85,87,,,,,,,,0.9,0.6,0.7,2*3A
$GNGSA,A,3,02,04,07,08,11,25,30,,,,,,0.9,0.6,0.7,3*36
$PQGSA,A,2,02,03,,,,,,,,,,,0.9,0.6,0.7,6*36
$GNGSA,A,3,06,07,09,10,24,26,,,,,,,0.9,0.6,0.7,5*36
$GNVTG,,T,,M,0.0,N,0.0,K,A*3D
$GNGGA,030903.00,3533.902204,N,13943.079972,E,1,12,0.6,3.8,M,39.3,M,,*79
$GNRMC,030903.00,A,3533.902204,N,13943.079972,E,0.0,,070323,4.9,W,A,V*69
$GBGSV,4,1,13,01,46,171,23,03,36,222,22,06,68,246,18,07,46,264,15*6D
$GBGSV,4,2,13,09,61,286,28,10,33,260,22,24,26,307,36,26,71,344,35*66
$GBGSV,4,3,13,29,31,045,30,02,18,247,,04,42,147,,12,10,205,*6A
$GBGSV,4,4,13,14,04,274,*59
$GPGSV,3,1,10,02,07,035,19,04,32,274,26,08,27,229,24,09,15,307,44,1*67
$GPGSV,3,2,10,16,60,327,38,18,32,070,28,26,56,053,39,27,61,233,30,1*65
$GPGSV,3,3,10,28,25,140,27,31,36,137,33,1*6A
$GLGSV,2,1,08,66,10,246,19,77,26,317,20,76,58,014,33,75,29,094,23,1*75
$GLGSV,2,2,08,87,28,182,27,85,32,035,32,67,14,296,37,68,01,341,,1*74
$GAGSV,2,1,07,02,62,340,39,07,14,310,30,08,31,257,30,11,33,060,28,7*7A
$GAGSV,2,2,07,25,41,068,30,30,21,288,43,36,44,126,33,7*4E
$PQGSV,1,1,02,194,82,011,23,195,47,165,32,0*7B
$GBGSV,4,1,13,01,46,171,29,03,36,222,27,06,68,246,23,07,46,264,20,0*70
$GBGSV,4,2,13,09,61,286,33,10,33,260,28,24,26,307,42,26,71,344,41,0*7A
$GBGSV,4,3,13,29,31,045,36,02,18,247,,04,42,147,,12,10,205,,0*70
$GBGSV,4,4,13,14,04,274,,0*45
$GNGSA,A,3,04,08,09,16,18,26,27,28,31,,,,0.9,0.6,0.7,1*3B
$GNGSA,A,3,67,75,76,85,87,,,,,,,,0.9,0.6,0.7,2*3A
$GNGSA,A,3,02,04,07,08,11,25,30,,,,,,0.9,0.6,0.7,3*36
$PQGSA,A,2,02,03,,,,,,,,,,,0.9,0.6,0.7,6*36
$GNGSA,A,3,06,07,09,10,24,26,,,,,,,0.9,0.6,0.7,5*36
$GNVTG,,T,,M,0.0,N,0.0,K,A*3D
$GNGGA,030904.00,3533.902190,N,13943.079773,E,1,12,0.6,4.2,M,39.3,M,,*72
$GNRMC,030904.00,A,3533.902190,N,13943.079773,E,0.0,,070323,4.9,W,A,V*6F
$GBGSV,4,1,13,01,46,171,23,03,36,222,22,06,68,246,23,07,46,264,15*65
$GBGSV,4,2,13,09,61,286,28,10,33,260,22,24,26,307,39,26,71,344,35*69
$GBGSV,4,3,13,29,31,045,31,02,18,247,,04,42,147,,12,10,205,*6B
$GBGSV,4,4,13,14,04,274,*59
$GPGSV,3,1,10,02,07,035,19,08,27,229,24,09,15,307,44,16,60,327,39,1*6A
$GPGSV,3,2,10,18,32,070,31,26,56,053,40,27,61,233,27,28,25,140,27,1*64
$GPGSV,3,3,10,31,36,137,30,04,32,274,,1*60
$GLGSV,2,1,08,66,10,246,19,77,26,317,22,76,58,014,30,75,29,094,26,1*71
$GLGSV,2,2,08,87,28,182,27,85,32,035,30,67,14,296,36,68,01,341,,1*77
$GAGSV,2,1,07,02,62,340,40,07,14,310,33,08,31,257,28,11,33,060,28,7*7E
$GAGSV,2,2,07,25,41,068,31,30,21,288,44,36,44,126,31,7*4A
$PQGSV,1,1,02,194,82,011,27,195,47,165,33,0*7E
$GBGSV,4,1,13,01,46,171,28,03,36,222,27,06,68,246,29,07,46,264,20,0*7B
$GBGSV,4,2,13,09,61,286,34,10,33,260,28,24,26,307,45,26,71,344,41,0*7A
$GBGSV,4,3,13,29,31,045,36,02,18,247,,04,42,147,,12,10,205,,0*70
$GBGSV,4,4,13,14,04,274,,0*45
$GNGSA,A,3,04,08,09,16,18,26,27,28,31,,,,0.9,0.6,0.7,1*3B
$GNGSA,A,3,67,75,76,85,87,,,,,,,,0.9,0.6,0.7,2*3A
$GNGSA,A,3,02,04,07,08,11,25,30,,,,,,0.9,0.6,0.7,3*36
$PQGSA,A,2,02,03,,,,,,,,,,,0.9,0.6,0.7,6*36
$GNGSA,A,3,06,07,09,10,24,26,,,,,,,0.9,0.6,0.7,5*36
$GNVTG,,T,,M,0.0,N,0.0,K,A*3D
$GNGGA,030905.00,3533.902186,N,13943.079648,E,1,12,0.6,4.2,M,39.3,M,,*7D
$GNRMC,030905.00,A,3533.902186,N,13943.079648,E,0.0,,070323,4.9,W,A,V*60
